{"type": "FeatureCollection", "features": [{"type": "Feature", "properties": {"geocoding": {"place_id": 1377017, "osm_type": "node", "osm_id": 316224720, "type": "town", "label": "Puerto Leguízamo, Putumayo, Colombia", "name": "Puerto Leguízamo"}, "search_dict": {"country": "Colombia", "state": "Putumayo", "city": "Puerto Leguizamo"}}, "geometry": {"type": "Point", "coordinates": [-74.7807029, -0.1926687]}}, {"type": "Feature", "properties": {"geocoding": {"place_id": 6854881, "osm_type": "node", "osm_id": 703166743, "type": "city", "label": "Cúcuta, Norte de Santander, 047, Colombia", "name": "Cúcuta"}, "search_dict": {"country": "Colombia", "state": "Norte de Santander", "city": "Cúcuta"}}, "geometry": {"type": "Point", "coordinates": [-72.5080387, 7.8971458]}}, {"type": "Feature", "properties": {"geocoding": {"place_id": 6875872, "osm_type": "node", "osm_id": 703169930, "type": "town", "label": "El Copey, Cesar, Colombia", "name": "El Copey"}, "search_dict": {"country": "Colombia", "state": "Cesar", "city": "El Copey"}}, "geometry": {"type": "Point", "coordinates": [-73.9611708, 10.1492075]}}, {"type": "Feature", "properties": {"geocoding": {"place_id": 6886716, "osm_type": "node", "osm_id": 703168217, "type": "town", "label": "Corinto, Cauca, Colombia", "name": "Corinto"}, "search_dict": {"country": "Colombia", "state": "Cauca", "city": "Corinto"}}, "geometry": {"type": "Point", "coordinates": [-76.2600266, 3.1733723]}}, {"type": "Feature", "properties": {"geocoding": {"place_id": 6886685, "osm_type": "node", "osm_id": 703168133, "type": "town", "label": "Timbío, Cauca, Colombia", "name": "Timbío"}, "search_dict": {"country": "Colombia", "state": "Cauca", "city": "Timbio"}}, "geometry": {"type": "Point", "coordinates": [-76.6838869, 2.352893]}}, {"type": "Feature", "properties": {"geocoding": {"place_id": 6819653, "osm_type": "node", "osm_id": 703169007, "type": "town", "label": "Unguía, Chocó, Colombia", "name": "Unguía"}, "search_dict": {"country": "Colombia", "state": "Chocó", "city": "Unguia"}}, "geometry": {"type": "Point", "coordinates": [-77.0934609, 8.0413196]}}, {"type": "Feature", "properties": {"geocoding": {"place_id": 6823060, "osm_type": "node", "osm_id": 703169648, "type": "town", "label": "El Paso, Cesar, Colombia", "name": "El Paso"}, "search_dict": {"country": "Colombia", "state": "Cesar", "city": "El Paso"}}, "geometry": {"type": "Point", "coordinates": [-73.7504695, 9.6589481]}}, {"type": "Feature", "properties": {"geocoding": {"place_id": 6851810, "osm_type": "node", "osm_id": 703168182, "type": "town", "label": "La Montañita, Caquetá, Colombia", "name": "La Montañita"}, "search_dict": {"country": "Colombia", "state": "Caquetá", "city": "La Montañita"}}, "geometry": {"type": "Point", "coordinates": [-75.4356404, 1.4817139]}}, {"type": "Feature", "properties": {"geocoding": {"place_id": 6805543, "osm_type": "node", "osm_id": 703182529, "type": "town", "label": "Yarumal, Norte, Antioquia, Colombia", "name": "Yarumal"}, "search_dict": {"country": "Colombia", "state": "Antioquia", "city": "Yarumal"}}, "geometry": {"type": "Point", "coordinates": [-75.4165529, 6.9625927]}}, {"type": "Feature", "properties": {"geocoding": {"place_id": 6866281, "osm_type": "node", "osm_id": 703219870, "type": "town", "label": "Chaparral, Tolima, 73168, Colombia", "name": "Chaparral"}, "search_dict": {"country": "Colombia", "state": "Tolima", "city": "Chaparral"}}, "geometry": {"type": "Point", "coordinates": [-75.4823397, 3.7245717]}}, {"type": "Feature", "properties": {"geocoding": {"place_id": 1389775, "osm_type": "node", "osm_id": 317976418, "type": "town", "label": "Supía, Alto Occidente, Caldas, Colombia", "name": "Supía"}, "search_dict": {"country": "Colombia", "state": "Caldas", "city": "Supía"}}, "geometry": {"type": "Point", "coordinates": [-75.651965, 5.4533321]}}, {"type": "Feature", "properties": {"geocoding": {"place_id": 117505274, "osm_type": "way", "osm_id": 176261117, "type": "town", "label": "Saravena, Arauca, Colombia", "name": "Saravena"}, "search_dict": {"country": "Colombia", "state": "Arauca", "city": "Saravena"}}, "geometry": {"type": "Point", "coordinates": [-71.8754435, 6.9564056]}}, {"type": "Feature", "properties": {"geocoding": {"place_id": 6865111, "osm_type": "node", "osm_id": 703170150, "type": "village", "label": "Chitaga, Chitagá, Norte de Santander, Colombia", "name": "Chitaga"}, "search_dict": {"country": "Colombia", "state": "Norte de Santander", "city": "Chitagá"}}, "geometry": {"type": "Point", "coordinates": [-72.6637936, 7.1380182]}}, {"type": "Feature", "properties": {"geocoding": {"place_id": 6822730, "osm_type": "node", "osm_id": 703168500, "type": "town", "label": "Belén de Umbría, Risaralda, Colombia", "name": "Belén de Umbría"}, "search_dict": {"country": "Colombia", "state": "Risaralda", "city": "Belén de Umbría"}}, "geometry": {"type": "Point", "coordinates": [-75.8689928, 5.2009093]}}, {"type": "Feature", "properties": {"geocoding": {"place_id": 6868114, "osm_type": "node", "osm_id": 703490831, "type": "town", "label": "La Dorada, San Miguel (La Dorada), Putumayo, Colombia", "name": "La Dorada"}, "search_dict": {"country": "Colombia", "state": "Putumayo", "city": "San Miguel"}}, "geometry": {"type": "Point", "coordinates": [-76.9110382, 0.3439276]}}, {"type": "Feature", "properties": {"geocoding": {"place_id": 6808291, "osm_type": "node", "osm_id": 703167879, "type": "town", "label": "Puerto Guzmán, Putumayo, Colombia", "name": "Puerto Guzmán"}, "search_dict": {"country": "Colombia", "state": "Putumayo", "city": "Puerto Guzmán"}}, "geometry": {"type": "Point", "coordinates": [-76.4079735, 0.9635253]}}, {"type": "Feature", "properties": {"geocoding": {"place_id": 6833662, "osm_type": "node", "osm_id": 703168303, "type": "town", "label": "Alto Baudó, Alto Baudó (pie de pató), Chocó, Colombia", "name": "Alto Baudó"}, "search_dict": {"country": "Colombia", "state": "Chocó", "city": "Alto Baudó"}}, "geometry": {"type": "Point", "coordinates": [-76.9746436, 5.5161118]}}, {"type": "Feature", "properties": {"geocoding": {"place_id": 1390554, "osm_type": "node", "osm_id": 317038534, "type": "town", "label": "Aguazul, Casanare, Colombia", "name": "Aguazul"}, "search_dict": {"country": "Colombia", "state": "Casanare", "city": "Aguazul"}}, "geometry": {"type": "Point", "coordinates": [-72.550846, 5.1708408]}}, {"type": "Feature", "properties": {"geocoding": {"place_id": 5945743, "osm_type": "node", "osm_id": 600829273, "type": "town", "label": "Tierralta, Córdoba, Colombia", "name": "Tierralta"}, "search_dict": {"country": "Colombia", "state": "Córdoba", "city": "Tierralta"}}, "geometry": {"type": "Point", "coordinates": [-76.059376, 8.1717342]}}, {"type": "Feature", "properties": {"geocoding": {"place_id": 6890441, "osm_type": "node", "osm_id": 703168127, "type": "town", "label": "Pitalito, Huila, 41551, Colombia", "name": "Pitalito"}, "search_dict": {"country": "Colombia", "state": "Huila", "city": "Pitalito"}}, "geometry": {"type": "Point", "coordinates": [-76.0451467, 1.8449656]}}, {"type": "Feature", "properties": {"geocoding": {"place_id": 6863243, "osm_type": "node", "osm_id": 703168214, "type": "town", "label": "Santander de Quilichao, Cauca, Colombia", "name": "Santander de Quilichao"}, "search_dict": {"country": "Colombia", "state": "Cauca", "city": "Santander de Quilichao"}}, "geometry": {"type": "Point", "coordinates": [-76.4856531, 3.0075752]}}, {"type": "Feature", "properties": {"geocoding": {"place_id": 1349908, "osm_type": "node", "osm_id": 311483479, "type": "town", "label": "Jamundí, Valle del Cauca, 0764001, Colombia", "name": "Jamundí"}, "search_dict": {"country": "Colombia", "state": "Valle del Cauca", "city": "Jamundi"}}, "geometry": {"type": "Point", "coordinates": [-76.5407975, 3.2618357]}}, {"type": "Feature", "properties": {"geocoding": {"place_id": 1240669, "osm_type": "node", "osm_id": 299736407, "type": "city", "label": "Popayán, Cauca, 190003, Colombia", "name": "Popayán"}, "search_dict": {"country": "Colombia", "state": "Cauca", "city": "Popayán"}}, "geometry": {"type": "Point", "coordinates": [-76.6062744, 2.4420181]}}, {"type": "Feature", "properties": {"geocoding": {"place_id": 6882777, "osm_type": "node", "osm_id": 703198014, "type": "town", "label": "Tame, Arauca, Colombia", "name": "Tame"}, "search_dict": {"country": "Colombia", "state": "Arauca", "city": "Tame"}}, "geometry": {"type": "Point", "coordinates": [-71.724362, 6.4615657]}}, {"type": "Feature", "properties": {"geocoding": {"place_id": 6855054, "osm_type": "node", "osm_id": 703168129, "type": "village", "label": "El Tambo, Cauca, Colombia", "name": "El Tambo"}, "search_dict": {"country": "Colombia", "state": "Cauca", "city": "El Tambo"}}, "geometry": {"type": "Point", "coordinates": [-76.8117409, 2.4511923]}}, {"type": "Feature", "properties": {"geocoding": {"place_id": 45191847, "osm_type": "node", "osm_id": 3306812051, "type": "town", "label": "Bello, Valle de Aburrá, Antioquia, Colombia", "name": "Bello"}, "search_dict": {"country": "Colombia", "state": "Antioquia", "city": "Bello"}}, "geometry": {"type": "Point", "coordinates": [-75.5582665, 6.334997]}}, {"type": "Feature", "properties": {"geocoding": {"place_id": 27968399, "osm_type": "node", "osm_id": 2674622291, "type": "town", "label": "Malambo, Atlántico, 083010, Colombia", "name": "Malambo"}, "search_dict": {"country": "Colombia", "state": "Atlántico", "city": "Malambo"}}, "geometry": {"type": "Point", "coordinates": [-74.7746194, 10.8653387]}}, {"type": "Feature", "properties": {"geocoding": {"place_id": 1326022, "osm_type": "node", "osm_id": 310197569, "type": "town", "label": "Turbo, Urabá, Antioquia, Colombia", "name": "Turbo"}, "search_dict": {"country": "Colombia", "state": "Antioquia", "city": "Turbo"}}, "geometry": {"type": "Point", "coordinates": [-76.728545, 8.0950848]}}, {"type": "Feature", "properties": {"geocoding": {"place_id": 1411515, "osm_type": "node", "osm_id": 321626047, "type": "town", "label": "Puerto Libertador, Córdoba, Colombia", "name": "Puerto Libertador"}, "search_dict": {"country": "Colombia", "state": "Córdoba", "city": "Puerto Libertador"}}, "geometry": {"type": "Point", "coordinates": [-75.6695487, 7.8900299]}}, {"type": "Feature", "properties": {"geocoding": {"place_id": 247359185, "osm_type": "relation", "osm_id": 9095022, "type": "administrative", "label": "Sucre, Comuna 9, Perímetro Urbano Santiago de Cali, Cali, Valle del Cauca, Colombia", "name": "Sucre"}, "search_dict": {"country": "Colombia", "state": "Cauca", "city": "Sucre"}}, "geometry": {"type": "Point", "coordinates": [-76.5246736278086, 3.44721985]}}, {"type": "Feature", "properties": {"geocoding": {"place_id": 15193647, "osm_type": "node", "osm_id": 1333025106, "type": "town", "label": "Piamonte, Cauca, Colombia", "name": "Piamonte"}, "search_dict": {"country": "Colombia", "state": "Cauca", "city": "Piamonte"}}, "geometry": {"type": "Point", "coordinates": [-76.3257151, 1.1198098]}}, {"type": "Feature", "properties": {"geocoding": {"place_id": 6855245, "osm_type": "node", "osm_id": 703168436, "type": "town", "label": "Cartago, Valle del Cauca, Colombia", "name": "Cartago"}, "search_dict": {"country": "Colombia", "state": "Valle del Cauca", "city": "Cartago"}}, "geometry": {"type": "Point", "coordinates": [-75.9121234, 4.7465494]}}, {"type": "Feature", "properties": {"geocoding": {"place_id": 1335218, "osm_type": "node", "osm_id": 309873479, "type": "city", "label": "Arauca, 80001, Colombia", "name": "Arauca"}, "search_dict": {"country": "Colombia", "state": "Arauca", "city": "Arauca"}}, "geometry": {"type": "Point", "coordinates": [-70.7570244, 7.0824596]}}, {"type": "Feature", "properties": {"geocoding": {"place_id": 248843524, "osm_type": "node", "osm_id": 671806634, "type": "city", "label": "Bogotá, Distrito Capital de Bogotá, 110321, Colombia", "name": "Bogotá"}, "search_dict": {"country": "Colombia", "state": "Bogotá DC", "city": "Bogotá"}}, "geometry": {"type": "Point", "coordinates": [-74.0760439, 4.59808]}}, {"type": "Feature", "properties": {"geocoding": {"place_id": 4252390, "osm_type": "node", "osm_id": 459570413, "type": "town", "label": "Mercaderes, Cauca, Colombia", "name": "Mercaderes"}, "search_dict": {"country": "Colombia", "state": "Cauca", "city": "Mercaderes"}}, "geometry": {"type": "Point", "coordinates": [-77.1610748, 1.7984873]}}, {"type": "Feature", "properties": {"geocoding": {"place_id": 6833531, "osm_type": "node", "osm_id": 703168107, "type": "town", "label": "Balboa, Cauca, Colombia", "name": "Balboa"}, "search_dict": {"country": "Colombia", "state": "Cauca", "city": "Balboa"}}, "geometry": {"type": "Point", "coordinates": [-77.2189492, 2.0414848]}}, {"type": "Feature", "properties": {"geocoding": {"place_id": 6851913, "osm_type": "node", "osm_id": 703168420, "type": "town", "label": "San Martín, Meta, Colombia", "name": "San Martín"}, "search_dict": {"country": "Colombia", "state": "Meta", "city": "San Martín"}}, "geometry": {"type": "Point", "coordinates": [-73.6952914, 3.6943897]}}, {"type": "Feature", "properties": {"geocoding": {"place_id": 6913023, "osm_type": "node", "osm_id": 703234193, "type": "village", "label": "Patía, Cauca, Colombia", "name": "Patía"}, "search_dict": {"country": "Colombia", "state": "Cauca", "city": "Patía"}}, "geometry": {"type": "Point", "coordinates": [-77.0531171, 2.0692152]}}, {"type": "Feature", "properties": {"geocoding": {"place_id": 268284311, "osm_type": "node", "osm_id": 6597947027, "type": "town", "label": "Pueblo Rico, Risaralda, Colombia", "name": "Pueblo Rico"}, "search_dict": {"country": "Colombia", "state": "Risaralda", "city": "Pueblo Rico"}}, "geometry": {"type": "Point", "coordinates": [-76.0301985, 5.2216215]}}, {"type": "Feature", "properties": {"geocoding": {"place_id": 187897165, "osm_type": "way", "osm_id": 543608507, "type": "administrative", "label": "Paez, Santander de Quilichao, Cauca, Colombia", "name": "Paez"}, "search_dict": {"country": "Colombia", "state": "Cauca", "city": "Paez"}}, "geometry": {"type": "Point", "coordinates": [-76.4637272, 2.9261568]}}, {"type": "Feature", "properties": {"geocoding": {"place_id": 6863195, "osm_type": "node", "osm_id": 703168146, "type": "town", "label": "Jambaló, Cauca, Colombia", "name": "Jambaló"}, "search_dict": {"country": "Colombia", "state": "Cauca", "city": "Jambaló"}}, "geometry": {"type": "Point", "coordinates": [-76.3243788, 2.7776822]}}, {"type": "Feature", "properties": {"geocoding": {"place_id": 243737942, "osm_type": "node", "osm_id": 6033536727, "type": "town", "label": "Tibú, Norte de Santander, Colombia", "name": "Tibú"}, "search_dict": {"country": "Colombia", "state": "Norte de Santander", "city": "Tibú"}}, "geometry": {"type": "Point", "coordinates": [-72.7344052, 8.6364898]}}, {"type": "Feature", "properties": {"geocoding": {"place_id": 6863672, "osm_type": "node", "osm_id": 703169698, "type": "town", "label": "Pivijay, Magdalena, Colombia", "name": "Pivijay"}, "search_dict": {"country": "Colombia", "state": "Magdalena", "city": "Pivijay"}}, "geometry": {"type": "Point", "coordinates": [-74.6169599, 10.4654031]}}, {"type": "Feature", "properties": {"geocoding": {"place_id": 6890504, "osm_type": "node", "osm_id": 703168239, "type": "town", "label": "El Cerrito, Valle del Cauca, Colombia", "name": "El Cerrito"}, "search_dict": {"country": "Colombia", "state": "Valle del Cauca", "city": "El Cerrito"}}, "geometry": {"type": "Point", "coordinates": [-76.3071487, 3.6829185]}}, {"type": "Feature", "properties": {"geocoding": {"place_id": 1553842, "osm_type": "node", "osm_id": 338267742, "type": "town", "label": "Puerto Concordia, Meta, Colombia", "name": "Puerto Concordia"}, "search_dict": {"country": "Colombia", "state": "Meta", "city": "Puerto Concordia"}}, "geometry": {"type": "Point", "coordinates": [-72.7585944, 2.6236384]}}, {"type": "Feature", "properties": {"geocoding": {"place_id": 5006628, "osm_type": "node", "osm_id": 554374965, "type": "city", "label": "San José del Guaviare, Guaviare, 95001, Colombia", "name": "San José del Guaviare"}, "search_dict": {"country": "Colombia", "state": "Guaviare", "city": "San José del Guaviare"}}, "geometry": {"type": "Point", "coordinates": [-72.6426515, 2.5716141]}}, {"type": "Feature", "properties": {"geocoding": {"place_id": 6890471, "osm_type": "node", "osm_id": 703168183, "type": "town", "label": "Belén de los Andaquíes, Caquetá, Colombia", "name": "Belén de los Andaquíes"}, "search_dict": {"country": "Colombia", "state": "Caquetá", "city": "Belén de los Andaquíes"}}, "geometry": {"type": "Point", "coordinates": [-75.8714223, 1.4200848]}}, {"type": "Feature", "properties": {"geocoding": {"place_id": 6863697, "osm_type": "node", "osm_id": 703169476, "type": "town", "label": "Sampués, Sucre, 705070, Colombia", "name": "Sampués"}, "search_dict": {"country": "Colombia", "state": "Sucre", "city": "Sampués"}}, "geometry": {"type": "Point", "coordinates": [-75.3802368, 9.1845583]}}, {"type": "Feature", "properties": {"geocoding": {"place_id": 6819157, "osm_type": "node", "osm_id": 703167929, "type": "town", "label": "Guapi, Cauca, Colombia", "name": "Guapi"}, "search_dict": {"country": "Colombia", "state": "Cauca", "city": "Guapi"}}, "geometry": {"type": "Point", "coordinates": [-77.8855875, 2.5706196]}}, {"type": "Feature", "properties": {"geocoding": {"place_id": 3032014, "osm_type": "node", "osm_id": 358363397, "type": "town", "label": "Chiriguaná, Municipio de La Paz, Cesar, Colombia", "name": "Chiriguaná"}, "search_dict": {"country": "Colombia", "state": "Cesar", "city": "Chiriguaná"}}, "geometry": {"type": "Point", "coordinates": [-73.6016974, 9.3636401]}}, {"type": "Feature", "properties": {"geocoding": {"place_id": 6855340, "osm_type": "node", "osm_id": 703168927, "type": "town", "label": "Miraflores, Guaviare, Colombia", "name": "Miraflores"}, "search_dict": {"country": "Colombia", "state": "Guaviare", "city": "Miraflores"}}, "geometry": {"type": "Point", "coordinates": [-71.9512391, 1.3368397]}}, {"type": "Feature", "properties": {"geocoding": {"place_id": 6829423, "osm_type": "node", "osm_id": 703191852, "type": "town", "label": "Tarazá, Bajo Cauca, Antioquia, Colombia", "name": "Tarazá"}, "search_dict": {"country": "Colombia", "state": "Antioquia", "city": "Tarazá"}}, "geometry": {"type": "Point", "coordinates": [-75.3998498, 7.5804751]}}, {"type": "Feature", "properties": {"geocoding": {"place_id": 6875564, "osm_type": "node", "osm_id": 703238168, "type": "town", "label": "Guachené, Cauca, Colombia", "name": "Guachené"}, "search_dict": {"country": "Colombia", "state": "Cauca", "city": "Guachené"}}, "geometry": {"type": "Point", "coordinates": [-76.3916018, 3.1323331]}}, {"type": "Feature", "properties": {"geocoding": {"place_id": 4026058, "osm_type": "node", "osm_id": 430200853, "type": "town", "label": "Suárez, Cauca, Colombia", "name": "Suárez"}, "search_dict": {"country": "Colombia", "state": "Cauca", "city": "Suárez"}}, "geometry": {"type": "Point", "coordinates": [-76.6948801, 2.9543543]}}, {"type": "Feature", "properties": {"geocoding": {"place_id": 5167602, "osm_type": "node", "osm_id": 583279928, "type": "town", "label": "Yondó, Magdalena Medio, Antioquia, Colombia", "name": "Yondó"}, "search_dict": {"country": "Colombia", "state": "Antioquia", "city": "Yondó"}}, "geometry": {"type": "Point", "coordinates": [-73.9113922, 7.0044426]}}, {"type": "Feature", "properties": {"geocoding": {"place_id": 6869763, "osm_type": "node", "osm_id": 703192042, "type": "town", "label": "Anorí, Nordeste, Antioquia, Colombia", "name": "Anorí"}, "search_dict": {"country": "Colombia", "state": "Antioquia", "city": "Anorí"}}, "geometry": {"type": "Point", "coordinates": [-75.1466433, 7.0736127]}}, {"type": "Feature", "properties": {"geocoding": {"place_id": 6799848, "osm_type": "node", "osm_id": 703168221, "type": "city", "label": "Buenaventura, 092, Colombia", "name": "Buenaventura"}, "search_dict": {"country": "Colombia", "state": "Valle del Cauca", "city": "Buenaventura"}}, "geometry": {"type": "Point", "coordinates": [-77.0786047, 3.8899335]}}, {"type": "Feature", "properties": {"geocoding": {"place_id": 4096434, "osm_type": "node", "osm_id": 443818369, "type": "town", "label": "Sonsón, Oriente, Antioquia, Colombia", "name": "Sonsón"}, "search_dict": {"country": "Colombia", "state": "Antioquia", "city": "Sonsón"}}, "geometry": {"type": "Point", "coordinates": [-75.3103532, 5.7106659]}}, {"type": "Feature", "properties": {"geocoding": {"place_id": 760562, "osm_type": "node", "osm_id": 266642215, "type": "city", "label": "Cartagena, Cartagena de Indias, Bolívar, 3110, Colombia", "name": "Cartagena"}, "search_dict": {"country": "Colombia", "state": "Bolívar", "city": "Cartagena"}}, "geometry": {"type": "Point", "coordinates": [-75.5271224, 10.4195841]}}, {"type": "Feature", "properties": {"geocoding": {"place_id": 6892880, "osm_type": "node", "osm_id": 703191835, "type": "town", "label": "Cáceres, Bajo Cauca, Antioquia, Colombia", "name": "Cáceres"}, "search_dict": {"country": "Colombia", "state": "Antioquia", "city": "Cáceres"}}, "geometry": {"type": "Point", "coordinates": [-75.3477905, 7.582364]}}, {"type": "Feature", "properties": {"geocoding": {"place_id": 6047148, "osm_type": "node", "osm_id": 611180443, "type": "town", "label": "Belalcázar, Bajo Occidente, Caldas, Colombia", "name": "Belalcázar"}, "search_dict": {"country": "Colombia", "state": "Caldas", "city": "Belalcazar"}}, "geometry": {"type": "Point", "coordinates": [-75.8122627, 4.994718]}}, {"type": "Feature", "properties": {"geocoding": {"place_id": 6808436, "osm_type": "node", "osm_id": 703168215, "type": "town", "label": "López de Micay, López, Cauca, Colombia", "name": "López de Micay"}, "search_dict": {"country": "Colombia", "state": "Cauca", "city": "López de Micay"}}, "geometry": {"type": "Point", "coordinates": [-77.247802, 2.847624]}}, {"type": "Feature", "properties": {"geocoding": {"place_id": 34622164, "osm_type": "node", "osm_id": 2820423900, "type": "town", "label": "Aguachica, Cesar, 205010, Colombia", "name": "Aguachica"}, "search_dict": {"country": "Colombia", "state": "Cesar", "city": "Aguachica"}}, "geometry": {"type": "Point", "coordinates": [-73.603699, 8.309416]}}, {"type": "Feature", "properties": {"geocoding": {"place_id": 6822592, "osm_type": "node", "osm_id": 703168206, "type": "town", "label": "Caloto, Cauca, Colombia", "name": "Caloto"}, "search_dict": {"country": "Colombia", "state": "Cauca", "city": "Caloto"}}, "geometry": {"type": "Point", "coordinates": [-76.4085199, 3.0336985]}}, {"type": "Feature", "properties": {"geocoding": {"place_id": 4302835, "osm_type": "node", "osm_id": 457741813, "type": "town", "label": "Los Córdobas, Córdoba, Colombia", "name": "Los Córdobas"}, "search_dict": {"country": "Colombia", "state": "Córdoba", "city": "Los Córdobas"}}, "geometry": {"type": "Point", "coordinates": [-76.3549184, 8.8922529]}}, {"type": "Feature", "properties": {"geocoding": {"place_id": 6887029, "osm_type": "node", "osm_id": 703234998, "type": "village", "label": "Puracé, Resguardo indígena Puracé, Puracé, Cauca, Colombia", "name": "Puracé"}, "search_dict": {"country": "Colombia", "state": "Cauca", "city": "Puracé"}}, "geometry": {"type": "Point", "coordinates": [-76.4551183, 2.3811038]}}, {"type": "Feature", "properties": {"geocoding": {"place_id": 1440041, "osm_type": "node", "osm_id": 321628330, "type": "town", "label": "San José de Uré, Montelíbano, Córdoba, Colombia", "name": "San José de Uré"}, "search_dict": {"country": "Colombia", "state": "Córdoba", "city": "San José de Ure"}}, "geometry": {"type": "Point", "coordinates": [-75.5344902, 7.7857846]}}, {"type": "Feature", "properties": {"geocoding": {"place_id": 6861944, "osm_type": "node", "osm_id": 703190767, "type": "town", "label": "Briceño, Norte, Antioquia, Colombia", "name": "Briceño"}, "search_dict": {"country": "Colombia", "state": "Antioquia", "city": "Briceño"}}, "geometry": {"type": "Point", "coordinates": [-75.5515702, 7.108944]}}, {"type": "Feature", "properties": {"geocoding": {"place_id": 248589784, "osm_type": "relation", "osm_id": 9146158, "type": "administrative", "label": "Buenos Aires, Comuna 18, Perímetro Urbano Santiago de Cali, Cali, Valle del Cauca, Colombia", "name": "Buenos Aires"}, "search_dict": {"country": "Colombia", "state": "Cauca", "city": "Buenos Aires"}}, "geometry": {"type": "Point", "coordinates": [-76.5497768553552, 3.39298005]}}, {"type": "Feature", "properties": {"geocoding": {"place_id": 1425565, "osm_type": "node", "osm_id": 317966332, "type": "town", "label": "Santuario, Risaralda, Colombia", "name": "Santuario"}, "search_dict": {"country": "Colombia", "state": "Risaralda", "city": "Santuario"}}, "geometry": {"type": "Point", "coordinates": [-75.9624682, 5.0732065]}}, {"type": "Feature", "properties": {"geocoding": {"place_id": 737084, "osm_type": "node", "osm_id": 263295783, "type": "town", "label": "La Dorada, Magdalena Caldense, Caldas, 253480, Colombia", "name": "La Dorada"}, "search_dict": {"country": "Colombia", "state": "Caldas", "city": "La Dorada"}}, "geometry": {"type": "Point", "coordinates": [-74.6633693, 5.4544379]}}, {"type": "Feature", "properties": {"geocoding": {"place_id": 2453582, "osm_type": "node", "osm_id": 344799743, "type": "city", "label": "Medellín, Zona Urbana Medellín, Medellín, Valle de Aburrá, Antioquia, 0500, Colombia", "name": "Medellín"}, "search_dict": {"country": "Colombia", "state": "Antioquia", "city": "Medellín"}}, "geometry": {"type": "Point", "coordinates": [-75.573553, 6.2443382]}}, {"type": "Feature", "properties": {"geocoding": {"place_id": 6568484, "osm_type": "node", "osm_id": 667522210, "type": "town", "label": "Coyaima, Tolima, Colombia", "name": "Coyaima"}, "search_dict": {"country": "Colombia", "state": "Tolima", "city": "Coyaima"}}, "geometry": {"type": "Point", "coordinates": [-75.194626, 3.798676]}}, {"type": "Feature", "properties": {"geocoding": {"place_id": 2501062, "osm_type": "node", "osm_id": 352936921, "type": "town", "label": "Mesetas, Meta, Colombia", "name": "Mesetas"}, "search_dict": {"country": "Colombia", "state": "Meta", "city": "Mesetas"}}, "geometry": {"type": "Point", "coordinates": [-74.0438661, 3.3840276]}}, {"type": "Feature", "properties": {"geocoding": {"place_id": 245789851, "osm_type": "node", "osm_id": 6086769710, "type": "town", "label": "Dosquebradas, Risaralda, 661001, Colombia", "name": "Dosquebradas"}, "search_dict": {"country": "Colombia", "state": "Risaralda", "city": "Dosquebradas"}}, "geometry": {"type": "Point", "coordinates": [-75.6713013, 4.8339551]}}, {"type": "Feature", "properties": {"geocoding": {"place_id": 1334583, "osm_type": "node", "osm_id": 311484945, "type": "city", "label": "Soacha, Cundinamarca, 250053, Colombia", "name": "Soacha"}, "search_dict": {"country": "Colombia", "state": "Cundinamarca", "city": "Soacha"}}, "geometry": {"type": "Point", "coordinates": [-74.2197205, 4.5821279]}}, {"type": "Feature", "properties": {"geocoding": {"place_id": 5199627, "osm_type": "node", "osm_id": 590217626, "type": "town", "label": "El Tarra, Inspección de Policía El Tarra, El Tarra, Norte de Santander, Colombia", "name": "El Tarra"}, "search_dict": {"country": "Colombia", "state": "Norte de Santander", "city": "El Tarra"}}, "geometry": {"type": "Point", "coordinates": [-73.0939675, 8.5750024]}}, {"type": "Feature", "properties": {"geocoding": {"place_id": 1517664, "osm_type": "node", "osm_id": 336918330, "type": "town", "label": "Rosas, Cauca, Colombia", "name": "Rosas"}, "search_dict": {"country": "Colombia", "state": "Cauca", "city": "Rosas"}}, "geometry": {"type": "Point", "coordinates": [-76.7392875, 2.2621018]}}, {"type": "Feature", "properties": {"geocoding": {"place_id": 6863207, "osm_type": "node", "osm_id": 703168186, "type": "town", "label": "Puerto Rico, Caquetá, Colombia", "name": "Puerto Rico"}, "search_dict": {"country": "Colombia", "state": "Caquetá", "city": "Puerto Rico"}}, "geometry": {"type": "Point", "coordinates": [-75.1530969, 1.909392]}}, {"type": "Feature", "properties": {"geocoding": {"place_id": 4367009, "osm_type": "node", "osm_id": 467953875, "type": "village", "label": "Puerto Meluk, Medio Baudó, Chocó, Colombia", "name": "Puerto Meluk"}, "search_dict": {"country": "Colombia", "state": "Chocó", "city": "Medio Baudó"}}, "geometry": {"type": "Point", "coordinates": [-76.949755, 5.1915773]}}, {"type": "Feature", "properties": {"geocoding": {"place_id": 8833459, "osm_type": "node", "osm_id": 919301410, "type": "city", "label": "Pereira, Perimetro Urbano Pereira, Pereira, Risaralda, 660002, Colombia", "name": "Pereira"}, "search_dict": {"country": "Colombia", "state": "Risaralda", "city": "Pereira"}}, "geometry": {"type": "Point", "coordinates": [-75.6946451, 4.8142912]}}, {"type": "Feature", "properties": {"geocoding": {"place_id": 6886731, "osm_type": "node", "osm_id": 703168245, "type": "town", "label": "Guacarí, Valle del Cauca, Colombia", "name": "Guacarí"}, "search_dict": {"country": "Colombia", "state": "Valle del Cauca", "city": "Guacarí"}}, "geometry": {"type": "Point", "coordinates": [-76.3344854, 3.7630235]}}, {"type": "Feature", "properties": {"geocoding": {"place_id": 5196449, "osm_type": "node", "osm_id": 590536842, "type": "town", "label": "El Carmen, Norte de Santander, Colombia", "name": "El Carmen"}, "search_dict": {"country": "Colombia", "state": "Norte de Santander", "city": "El Carmen"}}, "geometry": {"type": "Point", "coordinates": [-73.4468071, 8.5108096]}}, {"type": "Feature", "properties": {"geocoding": {"place_id": 6891547, "osm_type": "node", "osm_id": 703173363, "type": "town", "label": "Jardín, Suroeste, Antioquia, 056050, Colombia", "name": "Jardín"}, "search_dict": {"country": "Colombia", "state": "Antioquia", "city": "Jardín"}}, "geometry": {"type": "Point", "coordinates": [-75.8191833, 5.5990503]}}, {"type": "Feature", "properties": {"geocoding": {"place_id": 3317498, "osm_type": "node", "osm_id": 362301531, "type": "town", "label": "Carepa, Urabá, Antioquia, Colombia", "name": "Carepa"}, "search_dict": {"country": "Colombia", "state": "Antioquia", "city": "Carepa"}}, "geometry": {"type": "Point", "coordinates": [-76.6531687, 7.7585419]}}, {"type": "Feature", "properties": {"geocoding": {"place_id": 6799712, "osm_type": "node", "osm_id": 703167871, "type": "town", "label": "Puerto Asís, Putumayo, Colombia", "name": "Puerto Asís"}, "search_dict": {"country": "Colombia", "state": "Putumayo", "city": "Puerto Asís"}}, "geometry": {"type": "Point", "coordinates": [-76.4951418, 0.4979751]}}, {"type": "Feature", "properties": {"geocoding": {"place_id": 6890849, "osm_type": "node", "osm_id": 703169009, "type": "town", "label": "Riosucio, Chocó, Colombia", "name": "Riosucio"}, "search_dict": {"country": "Colombia", "state": "Chocó", "city": "Riosucio"}}, "geometry": {"type": "Point", "coordinates": [-77.1116961, 7.4366587]}}, {"type": "Feature", "properties": {"geocoding": {"place_id": 805071, "osm_type": "node", "osm_id": 274021463, "type": "city", "label": "Santiago de Cali, Perímetro Urbano Santiago de Cali, Cali, Valle del Cauca, 760044, Colombia", "name": "Santiago de Cali"}, "search_dict": {"country": "Colombia", "state": "Valle del Cauca", "city": "Cali"}}, "geometry": {"type": "Point", "coordinates": [-76.5324943, 3.4517923]}}, {"type": "Feature", "properties": {"geocoding": {"place_id": 4323169, "osm_type": "node", "osm_id": 459533393, "type": "town", "label": "Mapiripán, Meta, Colombia", "name": "Mapiripán"}, "search_dict": {"country": "Colombia", "state": "Meta", "city": "Mapiripán"}}, "geometry": {"type": "Point", "coordinates": [-72.132043, 2.8933959]}}, {"type": "Feature", "properties": {"geocoding": {"place_id": 4457306, "osm_type": "node", "osm_id": 475012946, "type": "town", "label": "Cantagallo, Bolívar, +57, Colombia", "name": "Cantagallo"}, "search_dict": {"country": "Colombia", "state": "Bolívar", "city": "Cantagallo"}}, "geometry": {"type": "Point", "coordinates": [-73.9150265, 7.3780007]}}, {"type": "Feature", "properties": {"geocoding": {"place_id": 6875424, "osm_type": "node", "osm_id": 703168068, "type": "town", "label": "El Rosario, Nariño, Colombia", "name": "El Rosario"}, "search_dict": {"country": "Colombia", "state": "Nariño", "city": "El Rosario"}}, "geometry": {"type": "Point", "coordinates": [-77.3350718, 1.7432036]}}]}